[
  {
    "id": "1",
    "name": "City Hoops Academy",
    "description": "Indoor courts, youth teams, coaching",
    "address": "123 Court Lane",
    "city": "Bengaluru",
    "phone": "+91-80-12345678",
    "website": "https://cityhoops.example",
    "thumbnail_url": "https://images.unsplash.com/photo-1517649763962-0c623066013b?w=800&q=60",
    "location": {
      "lat": 12.9715987,
      "lng": 77.5945627
    }
  },
  {
    "id": "2",
    "name": "Riverside Basketball Club",
    "description": "Outdoor courts, weekend pickup games",
    "address": "45 Riverside Rd",
    "city": "Kochi",
    "phone": "+91-484-9876543",
    "website": "https://riverside.example",
    "thumbnail_url": "https://images.unsplash.com/photo-1519852476563-3f25b3c2b37b?w=800&q=60",
    "location": {
      "lat": 9.931233,
      "lng": 76.267304
    }
  },
  {
    "id": "3",
    "name": "Northside Ballers",
    "description": "Community pickup games, open courts evenings",
    "address": "7 North Ave",
    "city": "Bengaluru",
    "phone": "+91-80-98765432",
    "website": "https://northside.example",
    "thumbnail_url": "https://images.unsplash.com/photo-1519222970733-f546218fa6d7?w=800&q=60",
    "location": {
      "lat": 13.035542,
      "lng": 77.5971
    }
  },
  {
    "id": "4",
    "name": "Ball is Life Academy",
    "description": "",
    "address": "Sholavandhan",
    "city": "Madurai",
    "phone": "",
    "website": "",
    "thumbnail_url": ""
  },
  {
    "id": "5",
    "name": "a",
    "description": "",
    "address": "v",
    "city": "v",
    "phone": "",
    "website": "",
    "thumbnail_url": ""
  }
]